~Version Information -- Digital Formation, Inc. LAS Writer
#Digital Formation, Inc. LogDigi to LAS Transfer Program V. 1.4
 VERS.                            2.00:   CWLS Log ASCII Standard -Version 2.00
 WRAP.                              NO:   One line per depth
 VEND.                    LESA 2.2 RC1:   Digital Formation, Inc.
~Well Information
#MNEM.UNIT           Data Type    Information
#---------        -------------   -----------------------------
 STRT.F                      7900.0000:   Start Depth
 STOP.F                      8180.0000:   Stop Depth
 STEP.F                         1.0000:   Depth Increment
 NULL.                       -999.2500:   No Data Flag
 COMP.                          Holmes:   Company
 WELL.                           mtbr8:   Well Name
 FLD .                        Heritage:   Field
 LOC .                       00-00N-0W:   Location
 CNTY.                        Arapahoe:   County
 STAT.                        Colorado:   State
 SRVC.         Digital Formation, Inc.:   Service Company
 DATE.                       01-JAN-66:   Log Date
 UWI .                           mtbr8:   Unique Well ID
 KB  .                          0.0000:   Kelly Bushing
 FILE.                           mtbr8:   Source File
 D_OVER.                            No:   Override Depth
~Curve Information
#MNEM.UNIT       API Codes    Curve Description
#---------    -------------   -----------------------------
 DEPT.F                   00 000 00 00:     1  Depth
 SP  .MV                  00 000 00 00:     2  Spontaneous Potential
 CALI.IN                  00 000 00 00:     3  Caliper
 DT  .US/F                00 000 00 00:     4  Sonic Travel Time
 RILM.OHMM                00 000 00 00:     5  Medium Induction Log
 RILD.OHMM                00 000 00 00:     6  Deep Induction Log
 RSFL.OHMM                00 000 00 00:     7  Spherically Focused Log
 MIC1.OHMM                00 000 00 00:     8  Microlog 1 Inch
 MIC2.OHMM                00 000 00 00:     9  Microlog 2 Inch
 GR  .GAPI                00 000 00 00:    10  Gamma Ray
 RHOB.G/C3                00 000 00 00:    11  Bulk Density
 DRHO.G/C3                00 000 00 00:    12  Density Correction
 DPHI.V/V                 00 000 00 00:    13  Density Porosity
 NPHI.V/V                 00 000 00 00:    14  Neutron Porosity
 UNKN_0.unkn              00 000 00 00:    15  Unknown
 UNKN_1.unkn              00 000 00 00:    16  Unknown
 RESTEMP.DEGF             00 000 00 00:    17  Reservoir Temperature
~Parameters or constants
#MNEM.UNIT        Value       Description
#---------    -------------   -----------------------------
 BHT .DEGF                    195.0000:   Bottom Hole Temp.
 BS  .IN                        8.0000:   Bit Size
 D_TOL.F                      0.010000:   LAS Depth Tolerance
 DFD .LB/G                    8.000000:   Mud Weight (Drilling Fluid Density)
 GRCL.GAPI                     18.6268:   GR Clean
 GRSH.GAPI                     45.4696:   GR Shale
 MFST.DEGF                    195.0000:   Mud Filtrate Res. Temp.
 PRES.PSI                    3416.3700:   Analog Pressure
 RMF .OHMM                    0.200000:   Mud Filtrate Resistivity
 RW  .OHMM                    0.100000:   Water Resistivity
 SPCL.MV                        6.7916:   SP Clean
 SPSH.MV                       98.3065:   SP Shale
 STEM.DEGF                     65.0000:   Surface Temp.
 TDL .F                      8220.0000:   Total Depth Logger
 TORCHT.2                Tornado Chart:   General: Rt > Rxo, Rt = Highest, Rxo = Lowest
 WST .DEGF                    195.0000:   Water Res. Temp.
~A     DEPT         SP       CALI         DT       RILM       RILD       RSFL       MIC1       MIC2         GR       RHOB       DRHO       DPHI       NPHI       UNKN       UNKN    RESTEMP
# ...
  7943.0000    98.9257     9.3301    58.7930    13.5961    13.3776    19.0774  -999.2500  -999.2500    38.5267     2.6994     0.0573     0.0048     0.0762  -999.2500    21.5156   190.6192
  7944.0000    98.8653     9.4798    57.9463    13.4293    13.3929    37.0811  -999.2500  -999.2500    38.1425     2.7027     0.0390     0.0006     0.0601  -999.2500    19.8194   190.6350
  7945.0000    98.4694     9.6613    59.1740    16.9833    13.8312    30.7093  -999.2500  -999.2500    38.4571     2.7081     0.0399    -0.0020     0.0694  -999.2500    18.2081   190.6509
  7946.0000    98.0945     9.2238    57.4038    18.8714    16.0540    15.7140  -999.2500  -999.2500    35.2246     2.7068     0.0503    -0.0031     0.0832  -999.2500    17.3388   190.6667
  7947.0000    97.6690     9.0918    55.8867    15.5760    16.7914    29.8658  -999.2500  -999.2500    31.0945     2.7098     0.0603    -0.0067     0.0788  -999.2500    18.3666   190.6825
  7948.0000    97.0212     9.0813    56.7406    12.2659    16.3041    57.2375  -999.2500  -999.2500    29.2095     2.7358     0.0925    -0.0309     0.0747  -999.2500    17.0902   190.6983
  7949.0000    96.4623     9.0968    62.3936    11.0738    15.7866    31.4543  -999.2500  -999.2500    36.5037     2.7540     0.1094    -0.0336     0.1168  -999.2500    16.3589   190.7141
  7950.0000    96.1543     9.0997    61.8050    12.6724    14.5315    13.4867  -999.2500  -999.2500    35.3654     2.7607     0.1346    -0.0343     0.1171  -999.2500    18.7533   190.7299
  7951.0000    95.9659     9.1239    60.9940    11.7324    12.1028    22.0093  -999.2500  -999.2500    41.1502     2.7646     0.1596    -0.0221     0.1087  -999.2500    20.8681   190.7457
  7952.0000    95.6632     9.1946    62.2540    11.1719    10.6397    25.9876  -999.2500    19.7999    50.2218     2.7412     0.1367    -0.0189     0.1108    21.2051    19.8543   190.7616
  7953.0000    95.4827     9.3432    62.2403    12.3133    11.7278    12.8771    19.7256    19.7727    50.5550     2.7452     0.1177    -0.0260     0.0823    18.8839    19.0951   190.7774
  7954.0000    95.5500     9.5354    58.4875    15.4348    14.3310    24.6242    19.7312    19.7458    40.1954     2.7693     0.1359    -0.0424     0.0534    19.2443    19.5927   190.7932
  7955.0000    95.4971     9.4243    55.7610    25.7545    25.9491    60.6926    19.7385    19.7384    33.1414     2.7725     0.1200    -0.0448     0.0410    20.0192    19.5266   190.8090
  7956.0000    95.5645     9.1726    55.1889    30.5581    32.9774   111.8342    19.7448    19.7235    24.1142     2.7759     0.0996    -0.0455     0.0313    17.2817    17.6711   190.8248
  7957.0000    95.7837     9.1507    56.6837    26.9242    37.2160    93.9615    19.7381    19.7198    24.7939     2.7762     0.0790    -0.0336     0.0383    15.3415    15.6138   190.8406
  7958.0000    96.0602     9.1127    57.3219    24.8409    34.7539    33.6949    19.7053    19.7556    31.1689     2.7597     0.0616    -0.0184     0.0503    14.2734    15.0659   190.8564
  7959.0000    96.1275     9.0970    57.0791    24.1044    28.6485    36.2123    19.6629    19.8120    34.0525     2.7327     0.0724    -0.0312     0.0602    14.7777    16.2750   190.8723
  7960.0000    96.2517     9.0865    57.0508    18.9765    23.7995    47.7756    19.6258    19.8353    35.8395     2.7562     0.0649    -0.0314     0.0738    16.2419    17.3464   190.8881
  7961.0000    96.3826     9.0761    58.5873    18.0989    23.7690    25.7771    19.5727    19.8187    42.4129     2.7610     0.0659    -0.0433     0.0927    16.5710    17.4749   190.9039
  7962.0000    96.4499     9.0656    59.0367    18.2898    22.7812    24.1990    19.5041    19.7774    51.6744     2.7734     0.0769    -0.0683     0.1122    15.8477    18.4108   190.9197
  7963.0000    96.4662     9.0551    58.4231    16.5898    21.6773    31.8897    19.4505    19.7491    57.3360     2.8170     0.0610    -0.0741     0.1219    17.2910    21.5083   190.9355
  7964.0000    96.4644     9.0447    58.4400    16.0863    21.8193    32.1492    19.3942    19.7204    57.2702     2.8269     0.0563    -0.0518     0.1052    22.0294    24.6311   190.9513
  7965.0000    96.5317     9.0342    58.7129    16.6760    21.9713    24.4475    19.3623    19.6867    54.9685     2.8164     0.0557    -0.0394     0.0921    23.7714    24.7248   190.9672
  7966.0000    96.5991     9.0238    58.4569    16.4217    20.7816    26.2977    19.3508    19.6268    53.4118     2.7757     0.0591    -0.0385     0.0895    21.7684    23.3466   190.9830
  7967.0000    96.6665     9.0133    59.6274    14.1637    18.9019    27.9146    19.3444    19.5914    52.7088     2.7723     0.0553    -0.0385     0.0921    21.4897    21.1903   190.9988
  7968.0000    96.7338     9.0259    61.0037    12.1159    16.5058    25.0802    19.3449    19.5418    55.6133     2.7711     0.0643    -0.0341     0.1057    20.3878    20.8399   191.0146
  7969.0000    96.3533     9.1486    62.4006    10.0603    14.3911    17.4311    19.2851    19.5030    57.0241     2.7622     0.0608    -0.0332     0.1198    20.4462    22.0924   191.0304
  7970.0000    95.4503     9.4349    63.9819     9.5455    12.9227    14.4063     7.4033    18.5536    59.4686     2.7603     0.0664    -0.0381     0.1228    21.7175    24.2523   191.0462
  7971.0000    93.2790     9.7372    64.3437    10.3093    13.1882    13.8924     5.6148     9.9596    60.2642     2.7667     0.0705    -0.0553     0.1229    23.5776    26.3664   191.0620
  7972.0000    88.9861     9.6735    62.3622    14.3128    14.5238    17.6923     5.7582     9.1818    53.6205     2.7971     0.0829    -0.0590     0.1223    26.0200    28.1362   191.0779
  7973.0000    84.6273     9.3922    58.2687    20.5734    19.4729    26.0184     5.8943     8.5174    48.1650     2.8126     0.0844    -0.0465     0.0745    25.8408    25.9784   191.0937
  7974.0000    80.7956     9.3818    55.8233    24.6751    24.7469    37.5065     6.6221     8.1301    45.3887     2.7900     0.0779    -0.0406     0.0596    23.3050    22.9467   191.1095
  7975.0000    77.9659     9.4041    54.4563    33.4604    38.1079    42.4182    10.0565    11.6752    44.3715     2.7773     0.0705    -0.0372     0.0381    20.0763    20.5871   191.1253
  7976.0000    73.2649     9.4200    53.5334    38.2166    65.8577    72.9792    10.3901    15.2373    41.4812     2.7697     0.0706    -0.0397     0.0289    18.0016    18.5737   191.1411
  7977.0000    67.4530     9.4246    52.9255    53.4225    99.8636   107.4314    10.2072    14.8110    34.7774     2.7703     0.0633    -0.0372     0.0226    17.2979    17.1563   191.1569
  7978.0000    62.5622     9.5166    52.5399    62.7463   123.7890   234.4640    10.5768    14.9920    28.5169     2.7715     0.0815    -0.0402     0.0236    15.6583    15.4433   191.1727
  7979.0000    56.3193     9.6210    53.6713    69.3509   114.8449   237.9802    12.3697    19.3550    26.4914     2.7811     0.1030    -0.0321     0.0306    13.4498    13.4882   191.1886
  7980.0000    52.0175     9.7281    57.7232    55.6985    91.9375   108.4830    19.5905    19.3590    29.2689     2.7681     0.1122    -0.0081     0.0426    12.3514    12.9395   191.2044
  7981.0000    47.9071     9.3739    59.8133    40.0176    71.7125    66.7407    19.5633    19.3683    32.2478     2.7230     0.1122     0.0196     0.0544    12.4165    13.0055   191.2202
  7982.0000    42.5527     9.1677    59.8678    36.3449    61.9497    61.0095    14.8620    19.3669    32.5947     2.6265     0.1110     0.0396     0.0510    13.2709    13.6905   191.2360
  7983.0000    39.3303     9.1661    58.4297    36.7940    63.5215    67.1953     1.9294     3.4323    30.1526     2.6401     0.1097     0.0369     0.0406    14.2401    14.3410   191.2518
  7984.0000    37.3832     9.1871    55.5240    41.3203    83.8252   119.1949     1.7403     2.9502    29.9670     2.6728     0.1066     0.0215     0.0299    13.8994    14.1961   191.2676
  7985.0000    35.9324     9.1848    54.2571    52.8088    96.1219   144.3136     3.5697     3.8967    31.9186     2.6958     0.0731     0.0058     0.0261    13.3557    13.6996   191.2835
