~Version Information -- Digital Formation, Inc. LAS Writer
#Digital Formation, Inc. LogDigi to LAS Transfer Program V. 1.4
 VERS.                            2.00:   CWLS Log ASCII Standard -Version 2.00
 WRAP.                              NO:   One line per depth
 VEND.                    LESA 2.2 RC1:   Digital Formation, Inc.
~Well Information
#MNEM.UNIT           Data Type    Information
#---------        -------------   -----------------------------
 STRT.F                      7900.0000:   Start Depth
 STOP.F                      8180.0000:   Stop Depth
 STEP.F                         1.0000:   Depth Increment
 NULL.                       -999.2500:   No Data Flag
 COMP.                          Holmes:   Company
 WELL.                           mtbr8:   Well Name
 FLD .                        Heritage:   Field
 LOC .                       00-00N-0W:   Location
 CNTY.                        Arapahoe:   County
 STAT.                        Colorado:   State
 SRVC.         Digital Formation, Inc.:   Service Company
 DATE.                       01-JAN-66:   Log Date
 UWI .                           mtbr8:   Unique Well ID
 KB  .                          0.0000:   Kelly Bushing
 FILE.                           mtbr8:   Source File
 D_OVER.                            No:   Override Depth
~Curve Information
#MNEM.UNIT       API Codes    Curve Description
#---------    -------------   -----------------------------
 DEPT.F                   00 000 00 00:     1  Depth
 SP  .MV                  00 000 00 00:     2  Spontaneous Potential
 CALI.IN                  00 000 00 00:     3  Caliper
 DT  .US/F                00 000 00 00:     4  Sonic Travel Time
 RILM.OHMM                00 000 00 00:     5  Medium Induction Log
 RILD.OHMM                00 000 00 00:     6  Deep Induction Log
 RSFL.OHMM                00 000 00 00:     7  Spherically Focused Log
 MIC1.OHMM                00 000 00 00:     8  Microlog 1 Inch
 MIC2.OHMM                00 000 00 00:     9  Microlog 2 Inch
 GR  .GAPI                00 000 00 00:    10  Gamma Ray
 RHOB.G/C3                00 000 00 00:    11  Bulk Density
 DRHO.G/C3                00 000 00 00:    12  Density Correction
 DPHI.V/V                 00 000 00 00:    13  Density Porosity
 NPHI.V/V                 00 000 00 00:    14  Neutron Porosity
 UNKN_0.unkn              00 000 00 00:    15  Unknown
 UNKN_1.unkn              00 000 00 00:    16  Unknown
 RESTEMP.DEGF             00 000 00 00:    17  Reservoir Temperature
~Parameters or constants
#MNEM.UNIT        Value       Description
#---------    -------------   -----------------------------
 BHT .DEGF                    195.0000:   Bottom Hole Temp.
 BS  .IN                        8.0000:   Bit Size
 D_TOL.F                      0.010000:   LAS Depth Tolerance
 DFD .LB/G                    8.000000:   Mud Weight (Drilling Fluid Density)
 GRCL.GAPI                     18.6268:   GR Clean
 GRSH.GAPI                     45.4696:   GR Shale
 MFST.DEGF                    195.0000:   Mud Filtrate Res. Temp.
 PRES.PSI                    3416.3700:   Analog Pressure
 RMF .OHMM                    0.200000:   Mud Filtrate Resistivity
 RW  .OHMM                    0.100000:   Water Resistivity
 SPCL.MV                        6.7916:   SP Clean
 SPSH.MV                       98.3065:   SP Shale
 STEM.DEGF                     65.0000:   Surface Temp.
 TDL .F                      8220.0000:   Total Depth Logger
 TORCHT.2                Tornado Chart:   General: Rt > Rxo, Rt = Highest, Rxo = Lowest
 WST .DEGF                    195.0000:   Water Res. Temp.
~A     DEPT         SP       CALI         DT       RILM       RILD       RSFL       MIC1       MIC2         GR       RHOB       DRHO       DPHI       NPHI       UNKN       UNKN    RESTEMP
  7900.0000    99.7318     9.2404    82.4803     3.1770     3.3353     3.3239  -999.2500  -999.2500    47.7330     2.3492     0.0476     0.2757     0.3027  -999.2500  -999.2500   189.9392
  7901.0000   103.1863     9.2463    81.6526     4.3841     3.9439     3.1732  -999.2500  -999.2500    50.3350     2.2383     0.0450     0.2463     0.3548  -999.2500    41.0424   189.9550
  7902.0000   103.8587     9.2834    71.3174     4.9891     5.2174     6.9733  -999.2500  -999.2500    55.8471     2.3555    -0.0117     0.2135     0.3691  -999.2500    47.4983   189.9708
  7903.0000   103.1125     9.3236    69.2187     4.9079     5.1466    10.4353  -999.2500  -999.2500    61.8302     2.4476     0.0396     0.0597     0.3392  -999.2500    42.2445   189.9866
  7904.0000   102.1605     9.3131    72.4645     3.8715     4.5654     8.2231  -999.2500  -999.2500    68.2969     2.6961     0.0935    -0.0069     0.2717  -999.2500    35.9667   190.0024
  7905.0000   101.1956     9.3189    75.4789     3.2293     4.1048     7.0486  -999.2500  -999.2500    74.4203     2.7120     0.1385    -0.0093     0.1687  -999.2500    32.1305   190.0182
  7906.0000   100.6951     9.3699    76.8760     3.6604     3.7022     3.8042  -999.2500  -999.2500    76.2778     2.7102     0.1180     0.0076     0.0625  -999.2500    32.3485   190.0341
  7907.0000   100.5935     9.3935    76.8428     5.2787     3.5436     3.6331  -999.2500  -999.2500    70.4118     2.6850     0.1355     0.0102     0.0566  -999.2500    34.9599   190.0499
  7908.0000   100.4664     9.4434    67.9124     7.5321     7.1041     5.4069  -999.2500  -999.2500    56.0490     2.7224     0.1057    -0.0067     0.0575  -999.2500    40.0936   190.0657
  7909.0000   100.3382     9.5872    57.7517    11.0844    11.3508     9.7446  -999.2500  -999.2500    43.4619     2.7431     0.0798    -0.0240     0.0558  -999.2500    38.8740   190.0815
  7910.0000   100.4055     9.7522    57.6200    17.0264    18.7061    27.3546  -999.2500  -999.2500    34.7322     2.7428     0.0759    -0.0254     0.0541  -999.2500    31.6297   190.0973
  7911.0000   100.6664     9.8180    57.5989    22.7371    23.7282    29.6580  -999.2500  -999.2500    34.1378     2.7513     0.0673    -0.0320     0.0554  -999.2500    22.1956   190.1131
  7912.0000   101.0215     9.8512    56.9708    20.8218    20.7079    36.6510  -999.2500  -999.2500    33.7921     2.7642     0.0826    -0.0400     0.0590  -999.2500    18.2228   190.1290
  7913.0000   101.0888     9.8407    57.5789    17.7318    13.0694    40.3662  -999.2500  -999.2500    35.0871     2.7579     0.0784    -0.0314     0.0672  -999.2500    17.5507   190.1448
  7914.0000   101.1562     9.8158    60.4211    11.7032    10.7768    26.4634  -999.2500  -999.2500    38.3830     2.7471     0.0784    -0.0269     0.0861  -999.2500    17.2112   190.1606
  7915.0000   101.2236     9.7706    63.5635    10.1810     9.9204    12.4946  -999.2500  -999.2500    41.1675     2.7404     0.0878    -0.0258     0.0962  -999.2500    17.9370   190.1764
  7916.0000   101.5753     9.7602    63.1288    11.5090    10.6797    11.7559  -999.2500  -999.2500    42.6101     2.7384     0.1219    -0.0250     0.0912  -999.2500    20.7918   190.1922
  7917.0000   102.1548     9.7769    58.4599    16.7970    16.0049    25.8904  -999.2500  -999.2500    37.2925     2.7355     0.1415    -0.0066     0.0704  -999.2500    22.2309   190.2080
  7918.0000   102.3881     9.8332    57.6945    16.9838    16.2792    45.0821  -999.2500  -999.2500    36.7372     2.7207     0.1082    -0.0166     0.0574  -999.2500    20.4035   190.2238
  7919.0000   101.8855     9.8843    58.3069    14.7704    14.9922    40.2958  -999.2500  -999.2500    40.5212     2.7456     0.1293    -0.0313     0.0672  -999.2500    17.2219   190.2397
  7920.0000   101.1806     9.8820    63.3260    10.1402    10.1047    24.2640  -999.2500  -999.2500    47.0713     2.7580     0.1428    -0.0234     0.0898  -999.2500    16.7416   190.2555
  7921.0000   100.6248     9.8878    71.4507     5.6046     7.2038     9.3345  -999.2500  -999.2500    59.8811     2.7411     0.1185    -0.0452     0.1388  -999.2500    18.0077   190.2713
  7922.0000   100.2909     9.8773    76.6482     4.2166     5.3290     5.3850  -999.2500  -999.2500    73.2291     2.7802     0.1619    -0.0431     0.2059  -999.2500    22.1101   190.2871
  7923.0000    99.9785     9.8669    77.9509     4.2270     4.8645     4.7701  -999.2500  -999.2500    74.4166     2.7701     0.1413    -0.0303     0.2292  -999.2500    30.1134   190.3029
  7924.0000    99.9050     9.8564    74.9472     5.2018     5.5480     7.4752  -999.2500  -999.2500    70.1663     2.7535     0.1328    -0.0253     0.2008  -999.2500    38.8623   190.3187
  7925.0000    99.9724     9.8787    66.0959     6.8516     7.3852    13.0998  -999.2500  -999.2500    55.5382     2.7336     0.1140    -0.0034     0.1569  -999.2500    38.1841   190.3345
  7926.0000   100.2594     9.8682    62.8211     9.2558     9.0801    15.6150  -999.2500  -999.2500    50.9498     2.7121     0.0776     0.0097     0.1203  -999.2500    30.7342   190.3504
  7927.0000   100.5693     9.9420    63.3769    10.8716     9.7454    12.9812  -999.2500  -999.2500    50.3667     2.6791     0.0529     0.0086     0.1023  -999.2500    24.3180   190.3662
  7928.0000   100.6557    10.2043    64.1299    11.3064    11.8351    11.0179  -999.2500  -999.2500    46.9155     2.6923     0.0729    -0.0031     0.1012  -999.2500    22.2399   190.3820
  7929.0000   100.6240    10.0481    62.9684    12.2678    13.2410    17.1412  -999.2500  -999.2500    42.0842     2.7355     0.0684    -0.0200     0.0853  -999.2500    23.5073   190.3978
  7930.0000    99.9988     9.7494    58.5754    13.4000    13.2958    29.4729  -999.2500  -999.2500    37.6235     2.7307     0.0599    -0.0126     0.0658  -999.2500    24.5032   190.4136
  7931.0000    99.0696     9.7340    58.4977    12.7471    10.9415    37.0796  -999.2500  -999.2500    35.3585     2.7365     0.0795    -0.0309     0.0567  -999.2500    22.4363   190.4294
  7932.0000    98.4472     9.6411    61.2000     9.8428     9.7758    14.5004  -999.2500  -999.2500    36.1543     2.7511     0.0893    -0.0292     0.0623  -999.2500    19.4293   190.4453
  7933.0000    98.1350     9.5985    63.6432    10.1855     9.7667     9.1915  -999.2500  -999.2500    43.2528     2.7471     0.1191    -0.0279     0.0688  -999.2500    18.5210   190.4611
  7934.0000    98.0524     9.5542    62.5050    12.8784    11.8118    15.4832  -999.2500  -999.2500    42.2031     2.7399     0.0879    -0.0189     0.0547  -999.2500    22.4219   190.4769
  7935.0000    97.9420     9.5555    58.6273    17.6624    13.2896    28.3655  -999.2500  -999.2500    34.2902     2.7133     0.0578    -0.0233     0.0462  -999.2500    23.3838   190.4927
  7936.0000    97.9465    10.0051    63.8469    18.8251    13.8891    34.2987  -999.2500  -999.2500    33.1787     2.7315     0.0586    -0.0216     0.0529  -999.2500    21.5780   190.5085
  7937.0000    98.0139     9.7995    62.7275    17.7764    16.1196    18.7586  -999.2500  -999.2500    36.5002     2.7313     0.0532    -0.0182     0.0590  -999.2500    18.7247   190.5243
  7938.0000    97.9609     9.4349    58.4632    15.1952    17.6576    32.3101  -999.2500  -999.2500    35.3544     2.7460     0.0693    -0.0293     0.0542  -999.2500    18.6514   190.5401
  7939.0000    98.0997     9.3720    58.5243    13.0509    16.3979    27.8293  -999.2500  -999.2500    36.1102     2.7506     0.0681    -0.0312     0.0605  -999.2500    18.4333   190.5560
  7940.0000    98.5385     9.3452    61.4095    10.0698    14.2365    19.1192  -999.2500  -999.2500    38.2294     2.7451     0.0747    -0.0220     0.0729  -999.2500    17.9146   190.5718
  7941.0000    98.8568     9.3347    63.3065     9.0447    13.3430    14.2670  -999.2500  -999.2500    41.4035     2.7452     0.0759    -0.0208     0.0818  -999.2500    18.2282   190.5876
  7942.0000    98.9522     9.3405    63.5106    11.4929    13.2046    11.4364  -999.2500  -999.2500    41.8039     2.7252     0.0687     0.0028     0.0894  -999.2500    19.7747   190.6034
