~Version Information -- Digital Formation, Inc. LAS Writer
#Digital Formation, Inc. LogDigi to LAS Transfer Program V. 1.4
 VERS.                            2.00:   CWLS Log ASCII Standard -Version 2.00
 WRAP.                              NO:   One line per depth
 VEND.                    LESA 2.2 RC1:   Digital Formation, Inc.
~Well Information
#MNEM.UNIT           Data Type    Information
#---------        -------------   -----------------------------
 STRT.F                      7900.0000:   Start Depth
 STOP.F                      8180.0000:   Stop Depth
 STEP.F                         1.0000:   Depth Increment
 NULL.                       -999.2500:   No Data Flag
 COMP.                          Holmes:   Company
 WELL.                           mtbr8:   Well Name
 FLD .                        Heritage:   Field
 LOC .                       00-00N-0W:   Location
 CNTY.                        Arapahoe:   County
 STAT.                        Colorado:   State
 SRVC.         Digital Formation, Inc.:   Service Company
 DATE.                       01-JAN-66:   Log Date
 UWI .                           mtbr8:   Unique Well ID
 KB  .                          0.0000:   Kelly Bushing
 FILE.                           mtbr8:   Source File
 D_OVER.                            No:   Override Depth
~Curve Information
#MNEM.UNIT       API Codes    Curve Description
#---------    -------------   -----------------------------
 DEPT.F                   00 000 00 00:     1  Depth
 SP  .MV                  00 000 00 00:     2  Spontaneous Potential
 CALI.IN                  00 000 00 00:     3  Caliper
 DT  .US/F                00 000 00 00:     4  Sonic Travel Time
 RILM.OHMM                00 000 00 00:     5  Medium Induction Log
 RILD.OHMM                00 000 00 00:     6  Deep Induction Log
 RSFL.OHMM                00 000 00 00:     7  Spherically Focused Log
 MIC1.OHMM                00 000 00 00:     8  Microlog 1 Inch
 MIC2.OHMM                00 000 00 00:     9  Microlog 2 Inch
 GR  .GAPI                00 000 00 00:    10  Gamma Ray
 RHOB.G/C3                00 000 00 00:    11  Bulk Density
 DRHO.G/C3                00 000 00 00:    12  Density Correction
 DPHI.V/V                 00 000 00 00:    13  Density Porosity
 NPHI.V/V                 00 000 00 00:    14  Neutron Porosity
 UNKN_0.unkn              00 000 00 00:    15  Unknown
 UNKN_1.unkn              00 000 00 00:    16  Unknown
 RESTEMP.DEGF             00 000 00 00:    17  Reservoir Temperature
~Parameters or constants
#MNEM.UNIT        Value       Description
#---------    -------------   -----------------------------
 BHT .DEGF                    195.0000:   Bottom Hole Temp.
 BS  .IN                        8.0000:   Bit Size
 D_TOL.F                      0.010000:   LAS Depth Tolerance
 DFD .LB/G                    8.000000:   Mud Weight (Drilling Fluid Density)
 GRCL.GAPI                     18.6268:   GR Clean
 GRSH.GAPI                     45.4696:   GR Shale
 MFST.DEGF                    195.0000:   Mud Filtrate Res. Temp.
 PRES.PSI                    3416.3700:   Analog Pressure
 RMF .OHMM                    0.200000:   Mud Filtrate Resistivity
 RW  .OHMM                    0.100000:   Water Resistivity
 SPCL.MV                        6.7916:   SP Clean
 SPSH.MV                       98.3065:   SP Shale
 STEM.DEGF                     65.0000:   Surface Temp.
 TDL .F                      8220.0000:   Total Depth Logger
 TORCHT.2                Tornado Chart:   General: Rt > Rxo, Rt = Highest, Rxo = Lowest
 WST .DEGF                    195.0000:   Water Res. Temp.
~A     DEPT         SP       CALI         DT       RILM       RILD       RSFL       MIC1       MIC2         GR       RHOB       DRHO       DPHI       NPHI       UNKN       UNKN    RESTEMP
# ...
  8115.0000     6.9876     8.5518    65.8295     2.5516     2.5796     9.6162     1.7729     2.5219    18.7068     2.5090     0.0949     0.1302     0.1644    16.0850  -999.2500   193.3394
  8116.0000     6.7975     8.4390    66.1789     2.4042     2.3466     8.4612     1.9480     2.5435    18.2178     2.4568     0.0631     0.1468     0.1582    16.1912  -999.2500   193.3552
  8117.0000     6.5261     8.4234    66.3429     2.2701     2.1715     7.2921     1.9143     2.5957    17.5990     2.4501     0.0687     0.1403     0.1549    16.7037  -999.2500   193.3710
  8118.0000     6.2316     8.5299    66.7088     2.2140     2.0295     7.0316     1.7136     2.5241    17.4898     2.4685     0.0828     0.1498     0.1522    17.0556  -999.2500   193.3869
  8119.0000     5.5665     8.5015    67.0190     2.1758     1.9503     6.9690     1.8789     2.5281    18.1629     2.4485     0.0691     0.1529     0.1481    17.3350  -999.2500   193.4027
  8120.0000     5.1580     8.4365    67.3396     2.1701     1.9326     7.1829     1.8823     2.5467    18.8037     2.4407     0.0560     0.1529     0.1464    17.3442  -999.2500   193.4185
  8121.0000     5.1634     8.4920    67.4474     2.2529     2.1276     7.2985     1.7794     2.5549    19.0986     2.4202     0.0474     0.1630     0.1436    17.5442  -999.2500   193.4343
  8122.0000     5.2620     8.5395    66.6409     2.3994     2.3095     7.5374     1.8354     2.8407    19.1079     2.4540     0.0626     0.1475     0.1386    17.6545  -999.2500   193.4501
  8123.0000     5.3852     8.6201    64.9182     2.7471     2.5715     8.5051     2.0710     3.0906    21.0247     2.4832     0.0858     0.1211     0.1261    17.1314  -999.2500   193.4659
  8124.0000     5.4359     8.6126    62.8310     3.4947     2.8774    10.5653     2.2135     3.0564    24.0608     2.4899     0.0866     0.1090     0.1155    16.5800  -999.2500   193.4818
  8125.0000     5.6071     8.6050    59.3874     4.0415     3.7835    12.6532     2.0995     2.9753    28.1362     2.5161     0.0850     0.0812     0.1034    16.1286  -999.2500   193.4976
  8126.0000     5.6578     8.5953    58.5396     5.4793     4.8176    15.7460     1.9145     2.8637    31.0908     2.5921     0.0932     0.0453     0.1020    15.6892  -999.2500   193.5134
  8127.0000     5.7085     8.5415    60.6494     5.7086     5.4002    19.3336     1.9034     2.9823    29.2189     2.6237     0.0924     0.0541     0.1229    14.5786  -999.2500   193.5292
  8128.0000     5.7591     8.5501    62.6733     5.3478     4.8815    14.6697     2.2832     3.2860    26.5093     2.5916     0.0817     0.0816     0.1369    14.2217  -999.2500   193.5450
  8129.0000     5.8097     8.5425    63.6979     4.6053     4.2752     8.0174     2.2663     3.0574    24.7651     2.5293     0.0832     0.1003     0.1413    15.4593  -999.2500   193.5608
  8130.0000     5.8604     8.5349    63.6538     3.8997     3.9475     7.0286     2.1503     2.7872    23.2455     2.5360     0.0878     0.0996     0.1392    16.4341  -999.2500   193.5766
  8131.0000     5.8606     8.5218    61.9689     3.6479     3.6347     7.2261     1.9091     2.6004    21.4044     2.5166     0.0781     0.1081     0.1378    16.6519  -999.2500   193.5925
  8132.0000     5.4793     8.5037    62.2028     3.5540     3.4864     7.9533     1.8849     2.5690    20.3748     2.5069     0.0622     0.1127     0.1382    16.5409  -999.2500   193.6083
  8133.0000     5.5167     8.4895    62.8420     3.5164     3.4069     7.3378     1.8198     2.4888    20.0070     2.5036     0.0508     0.1175     0.1571    16.3270  -999.2500   193.6241
  8134.0000     5.4601     8.4484    62.8340     3.4248     3.3264     6.5945     1.6654     2.3725    19.6432     2.4922     0.0505     0.1237     0.1582    16.2360  -999.2500   193.6399
  8135.0000     5.5107     8.3913    63.1711     3.3320     3.2681     6.8533     1.6469     2.3230    19.4519     2.4972     0.0501     0.1215     0.1579    16.4953  -999.2500   193.6557
  8136.0000     5.9756     8.3130    64.1866     3.2625     3.1701     6.8491     1.7364     2.3728    19.7523     2.4954     0.0610     0.1309     0.1568    16.6935  -999.2500   193.6715
  8137.0000     6.6974     8.2726    64.5801     3.1982     3.1038     6.1666     1.6813     2.2027    19.8590     2.4808     0.0701     0.1291     0.1576    16.7607  -999.2500   193.6873
  8138.0000     7.1678     8.3042    65.6903     3.1749     3.0177     5.9984     1.4812     2.0882    18.6752     2.4920     0.0778     0.1230     0.1627    16.9694  -999.2500   193.7032
  8139.0000     7.4723     8.3759    66.6097     3.1464     2.9380     6.3260     1.5154     2.2082    17.1965     2.4922     0.0556     0.1305     0.1692    16.6510  -999.2500   193.7190
  8140.0000     7.8138     8.4924    66.9724     3.0756     2.8573     5.5813     1.4134     2.1643    16.2995     2.4700     0.0545     0.1354     0.1733    16.3032  -999.2500   193.7348
  8141.0000     7.8480     8.5590    67.0338     2.9421     2.7304     5.1285     1.4612     2.1675    15.6835     2.4603     0.0716     0.1385     0.1749    16.8285  -999.2500   193.7506
  8142.0000     7.6748     8.5875    67.9608     2.7739     2.6038     5.2283     1.5629     2.2171    15.9464     2.4710     0.0738     0.1380     0.1753    17.3137  -999.2500   193.7664
  8143.0000     7.1429     8.5960    68.7933     2.6081     2.5149     4.9552     1.5363     2.1849    17.1801     2.4622     0.0753     0.1406     0.1750    17.7653  -999.2500   193.7822
  8144.0000     7.1723     8.6042    69.1514     2.5005     2.4407     4.4592     1.6270     2.1145    18.1883     2.4605     0.0929     0.1362     0.1724    18.0947  -999.2500   193.7981
  8145.0000     7.1024     8.6287    68.9342     2.4804     2.4416     4.2071     1.7071     2.3074    19.1347     2.4708     0.1014     0.1292     0.1638    18.0039  -999.2500   193.8139
  8146.0000     7.6865     8.6809    67.1020     2.6793     2.7057     4.2376     1.6951     2.5057    20.1502     2.4931     0.0964     0.1125     0.1553    18.1560  -999.2500   193.8297
  8147.0000     8.8223     8.7259    63.8098     3.3507     3.1116     4.8023     1.6315     2.2066    19.0420     2.5064     0.0879     0.1025     0.1369    18.1189  -999.2500   193.8455
  8148.0000     9.7426     8.7530    63.5744     3.9689     3.9491     9.4293     1.7263     2.3392    18.1575     2.5475     0.0930     0.0880     0.1360    17.5128  -999.2500   193.8613
  8149.0000    11.3735     8.7615    63.6793     4.4898     4.4763    10.8028     1.6558     2.5437    18.5164     2.5512     0.0955     0.0893     0.1392    16.5590  -999.2500   193.8771
  8150.0000    15.0617     8.7540    62.6738     4.7975     4.9935     9.6045     1.5683     2.4066    19.4193     2.5524     0.0879     0.0895     0.1307    16.2755  -999.2500   193.8929
  8151.0000    20.8720     8.7464    60.6288     5.1534     5.3551     9.5850     1.5879     2.3188    21.5666     2.5496     0.0723     0.0912     0.1098    16.8112  -999.2500   193.9088
  8152.0000    27.6456     8.7388    57.3469     5.7263     5.9671    10.7017     1.5507     2.3480    26.2770     2.5545     0.0792     0.0724     0.0860    17.5160  -999.2500   193.9246
  8153.0000    35.9118     8.7313    55.2700     7.4530     7.1902    15.1295     1.5107     2.3040    31.5341     2.6029     0.0969     0.0300     0.0568    17.6183  -999.2500   193.9404
  8154.0000    45.1420     8.7403    54.0831     9.7478     9.7504    22.1448     1.8181     2.4992    42.3008     2.6665     0.0974    -0.0072     0.0338  -999.2500  -999.2500   193.9562
  8155.0000    55.8218     8.7660    52.8317    13.1282    13.2677    34.9282     2.3370     3.8214    44.7908     2.7104     0.0988    -0.0333     0.0264  -999.2500  -999.2500   193.9720
  8156.0000    65.7933     8.7891    51.8844    22.1804    29.0365    48.2175     4.0364     7.2236    43.2484     2.7597     0.0914    -0.0282     0.0219  -999.2500  -999.2500   193.9878
  8157.0000    71.2715     8.7127    52.3960    35.6663    38.6111   117.5002    19.7229    19.3414    43.8452     2.7524     0.0765    -0.0179     0.0190  -999.2500  -999.2500   194.0036
