~Version Information -- Digital Formation, Inc. LAS Writer
#Digital Formation, Inc. LogDigi to LAS Transfer Program V. 1.4
 VERS.                            2.00:   CWLS Log ASCII Standard -Version 2.00
 WRAP.                              NO:   One line per depth
 VEND.                    LESA 2.2 RC1:   Digital Formation, Inc.
~Well Information
#MNEM.UNIT           Data Type    Information
#---------        -------------   -----------------------------
 STRT.F                      7900.0000:   Start Depth
 STOP.F                      8180.0000:   Stop Depth
 STEP.F                         1.0000:   Depth Increment
 NULL.                       -999.2500:   No Data Flag
 COMP.                          Holmes:   Company
 WELL.                           mtbr8:   Well Name
 FLD .                        Heritage:   Field
 LOC .                       00-00N-0W:   Location
 CNTY.                        Arapahoe:   County
 STAT.                        Colorado:   State
 SRVC.         Digital Formation, Inc.:   Service Company
 DATE.                       01-JAN-66:   Log Date
 UWI .                           mtbr8:   Unique Well ID
 KB  .                          0.0000:   Kelly Bushing
 FILE.                           mtbr8:   Source File
 D_OVER.                            No:   Override Depth
~Curve Information
#MNEM.UNIT       API Codes    Curve Description
#---------    -------------   -----------------------------
 DEPT.F                   00 000 00 00:     1  Depth
 SP  .MV                  00 000 00 00:     2  Spontaneous Potential
 CALI.IN                  00 000 00 00:     3  Caliper
 DT  .US/F                00 000 00 00:     4  Sonic Travel Time
 RILM.OHMM                00 000 00 00:     5  Medium Induction Log
 RILD.OHMM                00 000 00 00:     6  Deep Induction Log
 RSFL.OHMM                00 000 00 00:     7  Spherically Focused Log
 MIC1.OHMM                00 000 00 00:     8  Microlog 1 Inch
 MIC2.OHMM                00 000 00 00:     9  Microlog 2 Inch
 GR  .GAPI                00 000 00 00:    10  Gamma Ray
 RHOB.G/C3                00 000 00 00:    11  Bulk Density
 DRHO.G/C3                00 000 00 00:    12  Density Correction
 DPHI.V/V                 00 000 00 00:    13  Density Porosity
 NPHI.V/V                 00 000 00 00:    14  Neutron Porosity
 UNKN_0.unkn              00 000 00 00:    15  Unknown
 UNKN_1.unkn              00 000 00 00:    16  Unknown
 RESTEMP.DEGF             00 000 00 00:    17  Reservoir Temperature
~Parameters or constants
#MNEM.UNIT        Value       Description
#---------    -------------   -----------------------------
 BHT .DEGF                    195.0000:   Bottom Hole Temp.
 BS  .IN                        8.0000:   Bit Size
 D_TOL.F                      0.010000:   LAS Depth Tolerance
 DFD .LB/G                    8.000000:   Mud Weight (Drilling Fluid Density)
 GRCL.GAPI                     18.6268:   GR Clean
 GRSH.GAPI                     45.4696:   GR Shale
 MFST.DEGF                    195.0000:   Mud Filtrate Res. Temp.
 PRES.PSI                    3416.3700:   Analog Pressure
 RMF .OHMM                    0.200000:   Mud Filtrate Resistivity
 RW  .OHMM                    0.100000:   Water Resistivity
 SPCL.MV                        6.7916:   SP Clean
 SPSH.MV                       98.3065:   SP Shale
 STEM.DEGF                     65.0000:   Surface Temp.
 TDL .F                      8220.0000:   Total Depth Logger
 TORCHT.2                Tornado Chart:   General: Rt > Rxo, Rt = Highest, Rxo = Lowest
 WST .DEGF                    195.0000:   Water Res. Temp.
~A     DEPT         SP       CALI         DT       RILM       RILD       RSFL       MIC1       MIC2         GR       RHOB       DRHO       DPHI       NPHI       UNKN       UNKN    RESTEMP
# ...
  7986.0000    33.2727     9.1743    53.9923    56.2894    94.7954   147.7918    11.4256    10.2846    36.5346     2.6934     0.0422     0.0142     0.0296    13.4314    13.4472   191.2993
  7987.0000    29.6377     9.1798    54.7546    50.8720    85.1506   100.3110    15.0721    15.0130    37.6285     2.6769     0.0367     0.0451     0.0378    14.0390    13.8889   191.3151
  7988.0000    25.0519     9.2334    59.7194    36.5826    59.8430    53.1107    15.0984    15.0221    36.0537     2.6231     0.0229     0.0803     0.0618    14.1660    14.3773   191.3309
  7989.0000    21.2285     9.2534    73.1509    27.7162    48.4425    44.0831    15.1087    15.0272    33.6976     2.4679     0.0223     0.2117     0.0832    13.4295    14.8505   191.3467
  7990.0000    18.1524     9.2469    80.0789    19.7922    37.9361    34.5872    14.9518    14.9715    27.3398     2.2898     0.0249     0.2768     0.1017    12.3065    15.7779   191.3625
  7991.0000    15.0336     9.2344    81.8861    16.3633    30.1282    26.7395     1.4995     2.0302    24.6031     2.2279     0.0284     0.2828     0.1208    11.6777    16.9966   191.3783
  7992.0000    11.9308     9.2096    82.7962    14.7369    23.8350    23.2578     1.3491     2.0221    23.8428     2.2410     0.0387     0.2728     0.1403    11.6317    19.4362   191.3942
  7993.0000    10.8306     9.1992    83.1709    14.5918    21.4075    20.1531     1.3943     2.0873    22.2985     2.2430     0.0515     0.2731     0.1530    11.6645    20.5135   191.4100
  7994.0000    10.3018     9.2013    82.9131    15.7333    21.9034    17.4162     1.6662     2.1174    19.0730     2.2382     0.0400     0.2752     0.1556    11.5819    20.9380   191.4258
  7995.0000     9.8892     9.2045    81.3142    18.1547    23.8738    20.4490     1.9707     2.4190    17.0613     2.2325     0.0317     0.2747     0.1532    11.3845    20.7923   191.4416
  7996.0000     9.2388     9.2127    81.3516    17.5166    25.5810    26.2434     1.7529     2.3652    16.6366     2.2340     0.0317     0.2804     0.1490    11.1783    20.1941   191.4574
  7997.0000     8.4966     9.2227    82.6743    15.9229    23.2979    23.6432     1.9739     2.5266    18.0338     2.2247     0.0332     0.2882     0.1479    10.7143    19.5761   191.4732
  7998.0000     7.8497     9.2123    83.7987    13.8940    19.9364    18.6926     1.9637     2.6364    18.4536     2.1982     0.0391     0.2945     0.1531    10.5143    19.9380   191.4891
  7999.0000     7.3194     9.1854    84.1926    11.6772    17.3122    14.4371     1.6440     2.3731    17.5391     2.2148     0.0435     0.2802     0.1613    10.3363    20.9052   191.5049
  8000.0000     7.1147     9.1586    83.9251    10.1063    15.2891    12.3986     1.5991     2.2204    17.6569     2.2427     0.0489     0.2682     0.1623    10.4760    22.0318   191.5207
  8001.0000     7.1653     9.1187    83.3579     9.8478    14.3955    13.5101     1.5457     2.0374    18.2396     2.2494     0.0489     0.2607     0.1506    10.7121    22.8057   191.5365
  8002.0000     7.2327     9.0668    82.7800    10.7663    14.2578    14.0727     1.4698     1.9125    18.2407     2.2711     0.0789     0.2537     0.1292    10.7685    23.0478   191.5523
  8003.0000     7.3256     9.0453    82.0050    13.2389    16.1513    14.9128     1.3732     1.9779    17.8153     2.2706     0.0803     0.2662     0.1127    10.6776    22.7644   191.5681
  8004.0000     7.8921     9.0281    81.1178    17.6987    21.6244    18.0258     1.4889     2.0798    17.8798     2.2492     0.0441     0.2791     0.1055    10.5231    22.3742   191.5839
  8005.0000     8.3250     8.9917    80.6147    21.1588    25.4381    26.9368     1.6457     2.1943    18.4870     2.2337     0.0354     0.2809     0.1020    10.3798    22.1404   191.5998
  8006.0000     8.7052     8.9812    80.2358    23.2190    29.6722    32.7624     1.8249     2.5129    19.3533     2.2272     0.0263     0.2605     0.1016    10.2436    21.7581   191.6156
  8007.0000     9.0132     8.9688    80.0062    22.7235    32.7414    33.1540     1.9137     2.5703    21.2555     2.2613     0.0503     0.2557     0.1063    10.1615    20.4716   191.6314
  8008.0000     9.0805     8.9111    79.9505    20.8247    31.1820    26.5735     1.8271     2.5543    21.9707     2.2680     0.0431     0.2500     0.1137    10.1995    20.1364   191.6472
  8009.0000     9.1479     8.8684    79.9295    19.0364    29.0604    21.1734     1.8489     2.5865    22.3462     2.2746     0.0336     0.2542     0.1147    10.3072    21.7907   191.6630
  8010.0000     9.4003     8.4665    79.7728    18.4857    27.6880    20.3710     1.9857     2.6413    23.5938     2.2578     0.0248     0.2754     0.1155    10.2936    23.0949   191.6788
  8011.0000     9.7035     8.5545    79.6266    17.7237    25.8375    23.0867     2.5215     3.1172    24.2298     2.2272     0.0149     0.2890     0.1165    10.2195    22.7286   191.6946
  8012.0000     9.6652     8.7153    79.5530    16.4403    22.7230    24.7418     2.6444     3.2323    23.1358     2.2212     0.0200     0.2744     0.1176    10.3648    20.5362   191.7105
  8013.0000     8.9159     8.8607    79.6771    14.7227    18.5390    21.4285     2.5530     3.2657    24.1538     2.2410     0.0340     0.2709     0.1192    10.4636    20.4782   191.7263
  8014.0000     8.0777     8.9523    79.7430    12.4892    15.8030    16.8952     2.0267     2.8994    25.1607     2.2398     0.0328     0.2689     0.1230    10.3920    20.5828   191.7421
  8015.0000     7.3574     8.9688    78.9344    10.3198    13.8011    12.0747     2.2774     2.8452    24.3061     2.2482     0.0391     0.2671     0.1298    10.4773    20.5394   191.7579
  8016.0000     7.3337     8.9196    79.3097     7.8735    10.7203    10.1904     1.8807     2.7943    22.4411     2.2485     0.0417     0.2669     0.1443    10.5695    21.0788   191.7737
  8017.0000     7.4011     8.7844    79.7971     6.6652     9.2102    10.2167     1.9158     2.6704    21.5406     2.2488     0.0428     0.2684     0.1529    10.9250    21.6457   191.7895
  8018.0000     7.3035     8.6704    79.9289     6.2933     8.3642    10.1527     1.9598     2.8467    20.9985     2.2483     0.0367     0.2706     0.1483    11.5003    21.8434   191.8054
  8019.0000     7.2952     8.6289    78.9406     6.4594     8.2081    10.0775     1.9494     2.7810    20.3760     2.2483     0.0325     0.2643     0.1400    11.5535    21.5653   191.8212
  8020.0000     7.9001     8.5633    77.0569     7.2311     8.9386    10.3802     2.1483     2.7999    19.6066     2.2643     0.0335     0.2544     0.1245    11.6951    21.4203   191.8370
  8021.0000     8.7440     8.5205    77.2883     9.2416    11.6103    12.2693     2.1729     2.7576    18.9855     2.2804     0.0392     0.2488     0.1154    11.8891    21.4573   191.8528
  8022.0000     9.3528     8.4772    78.4125    11.7524    14.2247    17.8840     2.2377     2.7414    18.5484     2.2771     0.0401     0.2480     0.1178    11.8949    20.7979   191.8686
  8023.0000     9.4896     8.5360    79.8059    11.6403    14.6138    18.8824     2.2723     2.7709    18.1567     2.2810     0.0417     0.2385     0.1350    11.2340    19.3867   191.8844
  8024.0000     9.4863     8.5481    80.8291    10.4356    13.1531    13.9141     2.2751     2.8265    17.7801     2.2976     0.0514     0.2396     0.1395    10.5780    18.6563   191.9002
  8025.0000     8.9964     8.5678    80.8814     9.1611    12.2048    12.0877     1.9246     2.5810    18.1617     2.2970     0.0482     0.2439     0.1371    10.5836    19.6036   191.9161
  8026.0000     8.4920     8.6186    81.0103     8.5975    11.3925    11.3106     1.5546     2.2095    19.6902     2.2876     0.0497     0.2420     0.1326    10.9777    20.2852   191.9319
  8027.0000     8.1379     8.6416    81.4061     8.3170    10.4389    11.1449     1.4764     2.1326    20.2532     2.2849     0.0566     0.2529     0.1315    11.1129    20.3445   191.9477
  8028.0000     7.9089     8.6689    81.4743     8.2925    10.2605    10.6745     1.4846     2.0837    20.1154     2.2550     0.0369     0.2721     0.1302    11.2080    20.5388   191.9635
