~Version Information -- Digital Formation, Inc. LAS Writer
#Digital Formation, Inc. LogDigi to LAS Transfer Program V. 1.4
 VERS.                            2.00:   CWLS Log ASCII Standard -Version 2.00
 WRAP.                              NO:   One line per depth
 VEND.                    LESA 2.2 RC1:   Digital Formation, Inc.
~Well Information
#MNEM.UNIT           Data Type    Information
#---------        -------------   -----------------------------
 STRT.F                      7900.0000:   Start Depth
 STOP.F                      8180.0000:   Stop Depth
 STEP.F                         1.0000:   Depth Increment
 NULL.                       -999.2500:   No Data Flag
 COMP.                          Holmes:   Company
 WELL.                           mtbr8:   Well Name
 FLD .                        Heritage:   Field
 LOC .                       00-00N-0W:   Location
 CNTY.                        Arapahoe:   County
 STAT.                        Colorado:   State
 SRVC.         Digital Formation, Inc.:   Service Company
 DATE.                       01-JAN-66:   Log Date
 UWI .                           mtbr8:   Unique Well ID
 KB  .                          0.0000:   Kelly Bushing
 FILE.                           mtbr8:   Source File
 D_OVER.                            No:   Override Depth
~Curve Information
#MNEM.UNIT       API Codes    Curve Description
#---------    -------------   -----------------------------
 DEPT.F                   00 000 00 00:     1  Depth
 SP  .MV                  00 000 00 00:     2  Spontaneous Potential
 CALI.IN                  00 000 00 00:     3  Caliper
 DT  .US/F                00 000 00 00:     4  Sonic Travel Time
 RILM.OHMM                00 000 00 00:     5  Medium Induction Log
 RILD.OHMM                00 000 00 00:     6  Deep Induction Log
 RSFL.OHMM                00 000 00 00:     7  Spherically Focused Log
 MIC1.OHMM                00 000 00 00:     8  Microlog 1 Inch
 MIC2.OHMM                00 000 00 00:     9  Microlog 2 Inch
 GR  .GAPI                00 000 00 00:    10  Gamma Ray
 RHOB.G/C3                00 000 00 00:    11  Bulk Density
 DRHO.G/C3                00 000 00 00:    12  Density Correction
 DPHI.V/V                 00 000 00 00:    13  Density Porosity
 NPHI.V/V                 00 000 00 00:    14  Neutron Porosity
 UNKN_0.unkn              00 000 00 00:    15  Unknown
 UNKN_1.unkn              00 000 00 00:    16  Unknown
 RESTEMP.DEGF             00 000 00 00:    17  Reservoir Temperature
~Parameters or constants
#MNEM.UNIT        Value       Description
#---------    -------------   -----------------------------
 BHT .DEGF                    195.0000:   Bottom Hole Temp.
 BS  .IN                        8.0000:   Bit Size
 D_TOL.F                      0.010000:   LAS Depth Tolerance
 DFD .LB/G                    8.000000:   Mud Weight (Drilling Fluid Density)
 GRCL.GAPI                     18.6268:   GR Clean
 GRSH.GAPI                     45.4696:   GR Shale
 MFST.DEGF                    195.0000:   Mud Filtrate Res. Temp.
 PRES.PSI                    3416.3700:   Analog Pressure
 RMF .OHMM                    0.200000:   Mud Filtrate Resistivity
 RW  .OHMM                    0.100000:   Water Resistivity
 SPCL.MV                        6.7916:   SP Clean
 SPSH.MV                       98.3065:   SP Shale
 STEM.DEGF                     65.0000:   Surface Temp.
 TDL .F                      8220.0000:   Total Depth Logger
 TORCHT.2                Tornado Chart:   General: Rt > Rxo, Rt = Highest, Rxo = Lowest
 WST .DEGF                    195.0000:   Water Res. Temp.
~A     DEPT         SP       CALI         DT       RILM       RILD       RSFL       MIC1       MIC2         GR       RHOB       DRHO       DPHI       NPHI       UNKN       UNKN    RESTEMP
# ...
  8029.0000     7.7283     8.6584    81.4532     8.3883    10.1945    10.7047     1.6563     2.2424    19.7019     2.2389     0.0258     0.2899     0.1262    11.2940    21.2505   191.9793
  8030.0000     7.5551     8.6643    81.1394     8.5354    10.1256    11.3803     2.1842     2.5050    18.9165     2.2136     0.0192     0.2754     0.1195    11.4293    21.8513   191.9951
  8031.0000     7.6224     8.6538    80.6736     8.5785    10.3810    11.0132     2.3735     2.7004    17.8962     2.2281     0.0298     0.2593     0.1181    11.3803    22.1964   192.0109
  8032.0000     7.6898     8.6423    79.8264     8.8473    10.4280    10.6208     2.5666     2.8961    17.7211     2.2653     0.0653     0.2517     0.1190    11.4750    21.9137   192.0268
  8033.0000     7.8775     8.6165    79.9244     9.0478    10.6149    12.1744     2.4063     2.6370    18.1959     2.2752     0.0577     0.2527     0.1235    11.3357    20.8895   192.0426
  8034.0000     7.7601     8.5593    80.9417     8.8191    10.4452    11.5368     1.7853     2.4020    18.9207     2.2732     0.0355     0.2544     0.1293    11.5572    20.3789   192.0584
  8035.0000     7.4307     8.5138    81.4744     8.5464    10.2992    10.4289     1.9439     2.5844    19.1876     2.2705     0.0256     0.2554     0.1395    12.3943    20.5025   192.0742
  8036.0000     6.8452     8.4754    81.0173     8.4299    10.2910    11.4702     2.0370     2.6765    19.2489     2.2676     0.0249     0.2508     0.1423    14.4180    21.0965   192.0900
  8037.0000     6.3134     8.4692    80.7812     8.4320    10.4394    12.6773     1.7875     2.3492    18.8483     2.2753     0.0248     0.2531     0.1359    17.9917    21.6878   192.1058
  8038.0000     5.8893     8.5384    80.4876     8.4612    10.5808    12.4812     1.8488     2.4845    18.0636     2.2694     0.0259     0.2574     0.1246    18.8073    22.0141   192.1217
  8039.0000     5.5775     8.5761    78.9859     8.8673    11.2164    11.8353     1.7120     2.4603    17.4094     2.2650     0.0298     0.2599     0.1139    18.8966    21.9802   192.1375
  8040.0000     5.4006     8.6299    76.5848    11.0798    13.2695    13.8947     2.4379     2.7437    17.2715     2.2692     0.0335     0.2468     0.1009    19.4642    21.9045   192.1533
  8041.0000     5.0708     8.6965    75.8068    15.8387    17.7898    22.7944     2.4932     2.9248    17.3210     2.3071     0.0517     0.2310     0.0901    20.1968    22.0602   192.1691
  8042.0000     4.1571     8.7733    75.3884    19.6688    23.8687    33.2499     2.6626     3.0996    17.2564     2.3259     0.0650     0.2161     0.0891    19.8832    22.2604   192.1849
  8043.0000     3.4577     8.8163    75.2906    19.9824    23.9314    48.0864     2.8291     3.2175    17.5123     2.3344     0.0556     0.2239     0.0979    18.7237    22.2204   192.2007
  8044.0000     3.1100     8.8210    76.0226    19.3081    21.9849    46.6293     2.8133     3.2459    17.5906     2.3246     0.0519     0.2217     0.1042    18.2395    21.8971   192.2165
  8045.0000     3.1520     8.8583    76.3342    17.7420    20.1114    21.4125     1.8691     2.8845    17.3148     2.3279     0.0485     0.2382     0.1037    18.2457    21.8647   192.2324
  8046.0000     3.2193     8.8279    76.0696    15.9271    18.8103    19.9474     1.5077     2.5220    17.1390     2.2943     0.0334     0.2565     0.0936    18.5294    21.8609   192.2482
  8047.0000     3.2867     8.7324    75.8285    15.3237    18.7644    21.8539     1.4233     2.0611    17.0800     2.2580     0.0411     0.2592     0.0920    18.7905    21.9627   192.2640
  8048.0000     4.2397     8.4398    75.2360    16.9793    22.5116    26.8889     1.5682     2.3853    17.0637     2.2707     0.0646     0.2453     0.0942    19.0574    22.0033   192.2798
  8049.0000     4.5248     8.3895    74.4885    20.6392    24.1872    29.9742     1.6993     2.6923    17.3535     2.3073     0.0759     0.2277     0.0939    19.2056  -999.2500   192.2956
  8050.0000     5.1613     8.2510    74.5505    21.8824    25.6142    35.9979     1.6873     2.6715    17.9782     2.3178     0.0631     0.2079     0.0919    19.2216  -999.2500   192.3114
  8051.0000     5.3563     8.2408    74.0462    22.9214    30.6495    42.6835     1.6355     2.6858    19.4041     2.3322     0.0483     0.2131     0.0949    18.7387  -999.2500   192.3273
  8052.0000     5.4069     8.2935    72.9405    28.3803    34.7524    32.3832     1.4674     2.4134    18.2954     2.3322     0.0455     0.2223     0.0818    18.2286  -999.2500   192.3431
  8053.0000     5.0633     8.3686    71.7790    30.6293    38.7329    35.5280     1.2988     2.2201    17.0782     2.3196     0.0165     0.2265     0.0740    18.1137  -999.2500   192.3589
  8054.0000     4.2250     8.4285    72.1879    32.3020    44.1656    49.6644     1.1774     2.2163    16.8775     2.3318     0.0293     0.2013     0.0737    17.8167  -999.2500   192.3747
  8055.0000     3.3834     8.4511    72.4071    34.7280    50.7001    52.1716     1.3987     2.4816    16.7243     2.3589     0.0441     0.2096     0.0805    17.6295  -999.2500   192.3905
  8056.0000     3.3184     8.4794    71.7338    36.8860    53.3454    54.1619     1.8603     2.6891    16.4652     2.3439     0.0400     0.2208     0.0891    17.4371  -999.2500   192.4063
  8057.0000     3.3691     8.5281    71.1028    37.8484    51.5940    60.2114     2.4263     2.6041    17.2839     2.3227     0.0521     0.2232     0.0979    17.2793  -999.2500   192.4221
  8058.0000     3.4907     8.5324    71.6736    34.0843    47.9233    58.9317     1.7273     2.6208    17.5592     2.3190     0.0458     0.2195     0.1011    16.7457  -999.2500   192.4380
  8059.0000     4.3883     8.5248    72.1741    29.7588    46.1986    45.4480     1.7159     2.5941    17.7296     2.3277     0.0559     0.2127     0.1028    16.0066  -999.2500   192.4538
  8060.0000     5.4678     8.5333    72.5123    31.4000    47.3031    42.2482     1.6233     2.4293    17.0539     2.3379     0.0570     0.2156     0.1043    15.5604  -999.2500   192.4696
  8061.0000     6.2624     8.5419    73.1024    34.4796    48.7178    48.6721     1.6819     2.5021    15.8511     2.3202     0.0507     0.2285     0.1072    15.4067  -999.2500   192.4854
  8062.0000     6.5164     8.5504    73.9462    33.9967    49.0242    54.6097     1.7767     2.6765    15.5761     2.3153     0.0572     0.2258     0.1216    15.2207  -999.2500   192.5012
  8063.0000     6.5653     8.5271    74.2751    30.2750    45.1109    48.4005     1.5626     2.4944    15.5105     2.3219     0.0675     0.2167     0.1358    15.3004  -999.2500   192.5170
  8064.0000     6.4970     8.5030    74.1059    20.9813    38.5401    41.0967     1.6465     2.5397    15.5601     2.3443     0.0707     0.1989     0.1498    15.2685  -999.2500   192.5328
  8065.0000     6.1105     8.4955    74.0979    19.2302    32.1385    31.6476     1.5782     2.3323    15.6096     2.3619     0.0724     0.2022     0.1612    15.6027  -999.2500   192.5487
  8066.0000     4.6542     8.4445    74.0033    20.3577    29.1569    26.9186     1.7262     2.3687    16.3992     2.3520     0.0612     0.1894     0.1692    16.0253  -999.2500   192.5645
  8067.0000     3.4598     8.4320    73.2916    19.6958    26.9386    30.4486     1.5436     2.4407    16.6757     2.3722     0.0714     0.1796     0.1724    16.4428  -999.2500   192.5803
  8068.0000     3.5102     8.4973    72.6968    17.6856    24.8278    29.8388     1.6701     2.6495    16.1158     2.3909     0.0798     0.1810     0.1717    16.8810  -999.2500   192.5961
  8069.0000     4.1480     8.6147    72.2138    15.7155    24.1511    23.9854     1.9492     2.9069    15.3979     2.3880     0.0778     0.1856     0.1672    17.9691  -999.2500   192.6119
  8070.0000     4.8730     8.6934    72.2058    15.0280    23.6762    23.0577     1.8790     2.7156    15.2715     2.3857     0.0837     0.1747     0.1611    18.5479  -999.2500   192.6277
  8071.0000     5.3891     8.7366    72.4315    15.4398    22.6588    24.3715     1.6988     2.5416    16.0248     2.4029     0.0877     0.1738     0.1610    18.9398  -999.2500   192.6436
