~Version Information -- Digital Formation, Inc. LAS Writer
#Digital Formation, Inc. LogDigi to LAS Transfer Program V. 1.4
 VERS.                            2.00:   CWLS Log ASCII Standard -Version 2.00
 WRAP.                              NO:   One line per depth
 VEND.                    LESA 2.2 RC1:   Digital Formation, Inc.
~Well Information
#MNEM.UNIT           Data Type    Information
#---------        -------------   -----------------------------
 STRT.F                      7900.0000:   Start Depth
 STOP.F                      8180.0000:   Stop Depth
 STEP.F                         1.0000:   Depth Increment
 NULL.                       -999.2500:   No Data Flag
 COMP.                          Holmes:   Company
 WELL.                           mtbr8:   Well Name
 FLD .                        Heritage:   Field
 LOC .                       00-00N-0W:   Location
 CNTY.                        Arapahoe:   County
 STAT.                        Colorado:   State
 SRVC.         Digital Formation, Inc.:   Service Company
 DATE.                       01-JAN-66:   Log Date
 UWI .                           mtbr8:   Unique Well ID
 KB  .                          0.0000:   Kelly Bushing
 FILE.                           mtbr8:   Source File
 D_OVER.                            No:   Override Depth
~Curve Information
#MNEM.UNIT       API Codes    Curve Description
#---------    -------------   -----------------------------
 DEPT.F                   00 000 00 00:     1  Depth
 SP  .MV                  00 000 00 00:     2  Spontaneous Potential
 CALI.IN                  00 000 00 00:     3  Caliper
 DT  .US/F                00 000 00 00:     4  Sonic Travel Time
 RILM.OHMM                00 000 00 00:     5  Medium Induction Log
 RILD.OHMM                00 000 00 00:     6  Deep Induction Log
 RSFL.OHMM                00 000 00 00:     7  Spherically Focused Log
 MIC1.OHMM                00 000 00 00:     8  Microlog 1 Inch
 MIC2.OHMM                00 000 00 00:     9  Microlog 2 Inch
 GR  .GAPI                00 000 00 00:    10  Gamma Ray
 RHOB.G/C3                00 000 00 00:    11  Bulk Density
 DRHO.G/C3                00 000 00 00:    12  Density Correction
 DPHI.V/V                 00 000 00 00:    13  Density Porosity
 NPHI.V/V                 00 000 00 00:    14  Neutron Porosity
 UNKN_0.unkn              00 000 00 00:    15  Unknown
 UNKN_1.unkn              00 000 00 00:    16  Unknown
 RESTEMP.DEGF             00 000 00 00:    17  Reservoir Temperature
~Parameters or constants
#MNEM.UNIT        Value       Description
#---------    -------------   -----------------------------
 BHT .DEGF                    195.0000:   Bottom Hole Temp.
 BS  .IN                        8.0000:   Bit Size
 D_TOL.F                      0.010000:   LAS Depth Tolerance
 DFD .LB/G                    8.000000:   Mud Weight (Drilling Fluid Density)
 GRCL.GAPI                     18.6268:   GR Clean
 GRSH.GAPI                     45.4696:   GR Shale
 MFST.DEGF                    195.0000:   Mud Filtrate Res. Temp.
 PRES.PSI                    3416.3700:   Analog Pressure
 RMF .OHMM                    0.200000:   Mud Filtrate Resistivity
 RW  .OHMM                    0.100000:   Water Resistivity
 SPCL.MV                        6.7916:   SP Clean
 SPSH.MV                       98.3065:   SP Shale
 STEM.DEGF                     65.0000:   Surface Temp.
 TDL .F                      8220.0000:   Total Depth Logger
 TORCHT.2                Tornado Chart:   General: Rt > Rxo, Rt = Highest, Rxo = Lowest
 WST .DEGF                    195.0000:   Water Res. Temp.
~A     DEPT         SP       CALI         DT       RILM       RILD       RSFL       MIC1       MIC2         GR       RHOB       DRHO       DPHI       NPHI       UNKN       UNKN    RESTEMP
# ...
  8072.0000     5.7695     8.7876    73.8305    17.1306    21.0209    27.5420     1.8007     2.6686    16.1982     2.4029     0.0936     0.1720     0.1650    19.1555  -999.2500   192.6594
  8073.0000     5.9882     8.8176    74.1945    15.7562    19.3761    29.2636     1.7209     2.5030    15.9025     2.4038     0.0905     0.1803     0.1774    19.0491  -999.2500   192.6752
  8074.0000     5.9762     8.8434    73.5073    14.1325    17.9196    23.3846     1.6511     2.3040    15.6930     2.3782     0.0683     0.1932     0.1764    18.8130  -999.2500   192.6910
  8075.0000     5.8198     8.8385    73.2928    14.1475    16.7294    17.0573     1.7141     2.4974    16.1836     2.3975     0.0710     0.1703     0.1630    18.7975  -999.2500   192.7068
  8076.0000     5.6578     8.8151    73.3445    13.9529    15.1700    19.2431     1.4273     2.0984    16.5788     2.4294     0.0770     0.1624     0.1605    18.7816  -999.2500   192.7226
  8077.0000     5.7085     8.7428    73.5683    12.0503    13.7563    21.4641     1.4580     2.1087    16.9588     2.4414     0.0877     0.1576     0.1656    18.5635  -999.2500   192.7384
  8078.0000     5.8797     8.7192    73.7323     9.6798    12.1673    19.9755     1.6727     2.2634    17.4904     2.4366     0.1140     0.1538     0.1771    18.5940  -999.2500   192.7543
  8079.0000     6.0508     8.7116    74.0455     8.3108    10.9197    11.2304     1.6917     2.3213    19.6070     2.4421     0.1121     0.1600     0.1828    18.8306  -999.2500   192.7701
  8080.0000     6.1015     8.7040    74.2937     7.3133     9.7440     9.9698     1.6232     2.3204    21.6357     2.4288     0.0950     0.1618     0.1729    19.0413  -999.2500   192.7859
  8081.0000     6.1014     8.7126    73.1193     5.9919     7.9654     9.9547     1.5182     2.1295    24.0117     2.4184     0.0794     0.1669     0.1638    19.1742  -999.2500   192.8017
  8082.0000     6.0499     8.7672    69.4159     5.9514     7.2776     8.7809     1.5188     2.0543    28.8440     2.4275     0.1097     0.1611     0.1592    18.7875  -999.2500   192.8175
  8083.0000     6.0123     8.7941    68.1225     7.0152     7.8064     8.4352     1.5337     2.0868    31.1693     2.4347     0.1093     0.1653     0.1614    18.6284  -999.2500   192.8333
  8084.0000     6.0629     8.7865    69.0535     8.3635     8.6476    13.3773     1.5251     2.1028    31.3491     2.4192     0.0772     0.1704     0.1657    18.3364  -999.2500   192.8491
  8085.0000     6.2958     8.7789    71.4709     7.8476     8.5634    15.6384     1.5832     2.2027    29.4269     2.4166     0.0436     0.1986     0.1849    17.6504  -999.2500   192.8650
  8086.0000     6.5470     8.7714    72.9750     6.2658     7.8611    12.0946     1.8288     2.4915    26.1879     2.3570     0.0311     0.2153     0.2078    17.3812  -999.2500   192.8808
  8087.0000     6.8178     8.7477    73.8655     4.7854     5.2464     7.1206     1.8594     2.6736    24.8397     2.3352     0.0441     0.2190     0.2197    18.5410  -999.2500   192.8966
  8088.0000     6.8685     8.7401    74.1543     3.4506     3.7113     5.6411     1.6969     2.4428    24.7264     2.3226     0.0734     0.2131     0.2173    19.9257  -999.2500   192.9124
  8089.0000     6.6779     8.7423    73.9807     2.4183     2.8150     4.6562     1.5856     2.2526    24.5866     2.3327     0.0904     0.2150     0.2157    20.0948  -999.2500   192.9282
  8090.0000     7.1162     8.7410    73.7857     1.9448     2.1447     3.9208     1.3509     2.0607    23.3429     2.3363     0.0786     0.2146     0.2138    20.3171  -999.2500   192.9440
  8091.0000     7.1424     8.7335    73.0904     1.6068     1.7574     4.3995     1.4264     2.0202    21.7827     2.3347     0.0678     0.1960     0.2125    20.3850  -999.2500   192.9599
  8092.0000     6.3186     8.7098    72.3173     1.3821     1.4442     4.6623     1.3520     2.0174    20.5626     2.3501     0.0689     0.1744     0.2109    20.5498  -999.2500   192.9757
  8093.0000     5.7335     8.7022    71.2910     1.4071     1.2116     4.3888     1.2601     2.0042    19.4509     2.3914     0.0694     0.1679     0.1943    20.1861  -999.2500   192.9915
  8094.0000     5.5000     8.6947    70.1801     1.4809     1.2217     4.0281     1.3392     1.9978    19.2066     2.4105     0.0684     0.1526     0.1769    19.3048  -999.2500   193.0073
  8095.0000     5.1359     8.6832    68.6262     1.5805     1.3015     4.2546     1.5022     2.0114    19.3927     2.4261     0.0795     0.1407     0.1721    19.1919  -999.2500   193.0231
  8096.0000     5.1334     8.6473    67.3905     1.7576     1.4281     5.1055     1.7138     2.1218    18.2671     2.4613     0.0828     0.1247     0.1678    18.8246  -999.2500   193.0389
  8097.0000     5.6563     8.6398    66.2754     2.0330     1.7034     5.2346     1.9586     2.3441    17.4371     2.4718     0.1053     0.1113     0.1599    18.1016  -999.2500   193.0547
  8098.0000     6.2866     8.6322    65.8613     2.2525     1.9594     5.3920     1.8262     2.4496    17.9701     2.4988     0.0934     0.1127     0.1550    17.6400  -999.2500   193.0706
  8099.0000     6.8905     8.6246    65.5259     2.5596     2.2019     6.0076     1.7587     2.3100    18.0197     2.5022     0.0943     0.1102     0.1486    17.3424  -999.2500   193.0864
  8100.0000     7.4866     8.6324    64.9259     2.8209     2.4804     6.2893     1.5402     2.3354    16.6231     2.5079     0.0987     0.1062     0.1410    16.7173  -999.2500   193.1022
  8101.0000     8.2364     8.6696    63.4670     3.1102     2.9727     7.1842     1.6623     2.2589    18.0545     2.5181     0.0927     0.1019     0.1343    16.4913  -999.2500   193.1180
  8102.0000     8.2816     8.6825    62.8500     3.5528     3.4994    10.4454     1.4563     2.3503    19.0775     2.5242     0.0766     0.1029     0.1335    15.9322  -999.2500   193.1338
  8103.0000     7.8478     8.6588    63.1349     3.7262     3.7261    12.9938     1.8218     2.8399    19.2452     2.5220     0.0631     0.0890     0.1448    15.3640  -999.2500   193.1496
  8104.0000     7.6788     8.6512    63.6829     3.4674     3.5087    11.0025     1.8516     3.0002    18.9839     2.5473     0.0937     0.0930     0.1607    15.1872  -999.2500   193.1655
  8105.0000     7.7294     8.5995    64.2600     3.1050     3.1335     8.8695     1.8772     2.9873    17.7472     2.5316     0.1024     0.1009     0.1629    15.8685  -999.2500   193.1813
  8106.0000     7.3028     8.6881    64.6746     2.9356     2.8560     7.1173     1.9132     2.9135    17.3636     2.5231     0.1006     0.1056     0.1623    16.8133  -999.2500   193.1971
  8107.0000     7.1140     8.7090    65.0646     2.8573     2.8709     6.0601     1.9238     3.0180    18.4451     2.5116     0.0893     0.1235     0.1601    17.5091  -999.2500   193.2129
  8108.0000     6.8726     8.7015    65.1366     2.9402     3.0890     5.3937     1.9732     2.9820    19.6331     2.4927     0.0872     0.1179     0.1565    17.6693  -999.2500   193.2287
  8109.0000     6.8467     8.6638    65.0480     3.2334     3.4319     6.2814     2.3234     3.1643    20.8146     2.4979     0.0884     0.1145     0.1541    17.7382  -999.2500   193.2445
  8110.0000     6.8973     8.6240    65.0400     3.5217     3.6052     8.0500     2.9388     3.6043    22.2731     2.4994     0.0811     0.1238     0.1512    17.0129  -999.2500   193.2603
  8111.0000     7.1891     8.5982    65.1351     3.5639     3.6221     9.6097     2.3438     3.6933    20.8888     2.4881     0.0556     0.1228     0.1512    16.3126  -999.2500   193.2762
  8112.0000     7.2399     8.5768    65.2655     3.3328     3.4117     9.5002     1.9884     3.0621    18.9626     2.4870     0.0587     0.1208     0.1560    15.9077  -999.2500   193.2920
  8113.0000     7.2905     8.5670    65.2777     3.0105     3.0513     9.3862     1.8947     2.9492    18.1477     2.4877     0.0851     0.1108     0.1612    16.3219  -999.2500   193.3078
  8114.0000     7.0999     8.5594    65.4677     2.7432     2.8119     9.8118     1.7955     2.7112    18.3951     2.5039     0.1027     0.1084     0.1661    16.6453  -999.2500   193.3236
