~Version Information -- Digital Formation, Inc. LAS Writer
#Digital Formation, Inc. LogDigi to LAS Transfer Program V. 1.4
 VERS.                            2.00:   CWLS Log ASCII Standard -Version 2.00
 WRAP.                              NO:   One line per depth
 VEND.                    LESA 2.2 RC1:   Digital Formation, Inc.
~Well Information
#MNEM.UNIT           Data Type    Information
#---------        -------------   -----------------------------
 STRT.F                      7900.0000:   Start Depth
 STOP.F                      8180.0000:   Stop Depth
 STEP.F                         1.0000:   Depth Increment
 NULL.                       -999.2500:   No Data Flag
 COMP.                          Holmes:   Company
 WELL.                           mtbr8:   Well Name
 FLD .                        Heritage:   Field
 LOC .                       00-00N-0W:   Location
 CNTY.                        Arapahoe:   County
 STAT.                        Colorado:   State
 SRVC.         Digital Formation, Inc.:   Service Company
 DATE.                       01-JAN-66:   Log Date
 UWI .                           mtbr8:   Unique Well ID
 KB  .                          0.0000:   Kelly Bushing
 FILE.                           mtbr8:   Source File
 D_OVER.                            No:   Override Depth
~Curve Information
#MNEM.UNIT       API Codes    Curve Description
#---------    -------------   -----------------------------
 DEPT.F                   00 000 00 00:     1  Depth
 SP  .MV                  00 000 00 00:     2  Spontaneous Potential
 CALI.IN                  00 000 00 00:     3  Caliper
 DT  .US/F                00 000 00 00:     4  Sonic Travel Time
 RILM.OHMM                00 000 00 00:     5  Medium Induction Log
 RILD.OHMM                00 000 00 00:     6  Deep Induction Log
 RSFL.OHMM                00 000 00 00:     7  Spherically Focused Log
 MIC1.OHMM                00 000 00 00:     8  Microlog 1 Inch
 MIC2.OHMM                00 000 00 00:     9  Microlog 2 Inch
 GR  .GAPI                00 000 00 00:    10  Gamma Ray
 RHOB.G/C3                00 000 00 00:    11  Bulk Density
 DRHO.G/C3                00 000 00 00:    12  Density Correction
 DPHI.V/V                 00 000 00 00:    13  Density Porosity
 NPHI.V/V                 00 000 00 00:    14  Neutron Porosity
 UNKN_0.unkn              00 000 00 00:    15  Unknown
 UNKN_1.unkn              00 000 00 00:    16  Unknown
 RESTEMP.DEGF             00 000 00 00:    17  Reservoir Temperature
~Parameters or constants
#MNEM.UNIT        Value       Description
#---------    -------------   -----------------------------
 BHT .DEGF                    195.0000:   Bottom Hole Temp.
 BS  .IN                        8.0000:   Bit Size
 D_TOL.F                      0.010000:   LAS Depth Tolerance
 DFD .LB/G                    8.000000:   Mud Weight (Drilling Fluid Density)
 GRCL.GAPI                     18.6268:   GR Clean
 GRSH.GAPI                     45.4696:   GR Shale
 MFST.DEGF                    195.0000:   Mud Filtrate Res. Temp.
 PRES.PSI                    3416.3700:   Analog Pressure
 RMF .OHMM                    0.200000:   Mud Filtrate Resistivity
 RW  .OHMM                    0.100000:   Water Resistivity
 SPCL.MV                        6.7916:   SP Clean
 SPSH.MV                       98.3065:   SP Shale
 STEM.DEGF                     65.0000:   Surface Temp.
 TDL .F                      8220.0000:   Total Depth Logger
 TORCHT.2                Tornado Chart:   General: Rt > Rxo, Rt = Highest, Rxo = Lowest
 WST .DEGF                    195.0000:   Water Res. Temp.
~A     DEPT         SP       CALI         DT       RILM       RILD       RSFL       MIC1       MIC2         GR       RHOB       DRHO       DPHI       NPHI       UNKN       UNKN    RESTEMP
# ...
  8158.0000    77.2373     8.5921    54.4203    34.5183    39.9048   188.2710    19.6499    19.3631    44.2166     2.7357     0.0668    -0.0166     0.0254  -999.2500  -999.2500   194.0195
  8159.0000    83.0656     8.5570    56.6197    23.2211    35.8360   131.3473    19.5733    19.3777    43.3737     2.7511     0.0971    -0.0393     0.0479  -999.2500  -999.2500   194.0353
  8160.0000    88.0847     8.5494    56.9276    19.4657    26.9228    34.1809    19.4917    19.3905    43.3388     2.7744     0.1238    -0.0448     0.0658  -999.2500  -999.2500   194.0511
  8161.0000    94.0872     8.5381    57.3244    18.3620    22.9341    22.3774    19.3892    19.3914    43.1299     2.7764     0.1208    -0.0256     0.0703  -999.2500  -999.2500   194.0669
  8162.0000    97.9028     8.5021    57.3274    15.1019    18.1912    27.1314    19.2966    19.3921    47.5650     2.7409     0.0767    -0.0273     0.0812  -999.2500  -999.2500   194.0827
  8163.0000   100.8219     8.4945    57.2864    13.0418    16.7547    25.0955    19.2386    19.3927    53.8681     2.7334     0.0673    -0.0174     0.0929  -999.2500  -999.2500   194.0985
  8164.0000   103.6069     8.4666    57.2785    11.1200    15.3232    18.4228    19.2379    19.3869    59.8980     2.7261     0.0893    -0.0215     0.1219  -999.2500  -999.2500   194.1144
  8165.0000   105.3227     8.3957    57.5464     9.7313    13.0335    16.8081    19.2406    19.3670    63.2171     2.7407     0.1069    -0.0283     0.1361  -999.2500  -999.2500   194.1302
  8166.0000   106.4116     8.3207    57.6474     8.6123    11.1263    15.6311    19.2711    19.3513    70.9139     2.7407     0.1078    -0.0113     0.1552  -999.2500  -999.2500   194.1460
  8167.0000   107.0475     8.2542    57.6569     6.9033     8.8310    11.5447    19.3072    19.3473    75.1831     2.7136     0.0836    -0.0026     0.1737  -999.2500  -999.2500   194.1618
  8168.0000   107.5395     8.2312    57.0169     6.1834     7.6421     8.7241    19.3421    19.3479    74.3926     2.7016     0.0832    -0.0015     0.1807  -999.2500  -999.2500   194.1776
  8169.0000   108.0257     8.2388    56.9161     6.3537     7.3007     7.8442    19.3684    19.3520    71.1329     2.6934     0.0896     0.0071     0.1716  -999.2500  -999.2500   194.1934
  8170.0000   108.2995     8.2321    57.5619     6.7283     7.0739     9.0921    19.3897    19.3676    67.2260     2.6986     0.1198     0.0021     0.1541  -999.2500  -999.2500   194.2092
  8171.0000   108.2254     8.2407    57.6668     6.3555     7.1560    12.5952    19.4090    19.3908    65.8201     2.7059     0.0851    -0.0104     0.1300  -999.2500  -999.2500   194.2251
  8172.0000   107.5333     8.2491    57.0529     5.9988     7.8799    12.8945    19.4117    19.4043    60.7108     2.7252     0.0834    -0.0244     0.1361  -999.2500  -999.2500   194.2409
  8173.0000   106.7684     8.3376    57.0449     8.2004    10.9487     8.3089    19.4241    19.4151    44.9376     2.7529     0.0987    -0.0334     0.0950  -999.2500  -999.2500   194.2567
  8174.0000   106.0052     8.3307    57.0440    13.9353    18.8484    23.1510    19.4375    19.4265    42.8508     2.7518     0.0767    -0.0281     0.0171  -999.2500  -999.2500   194.2725
  8175.0000   105.4502     8.3733    57.1093    18.8006    41.0007    71.5755    19.4580    19.4334    43.3934     2.7628     0.0841    -0.0367     0.0161  -999.2500  -999.2500   194.2883
  8176.0000   105.4804     8.4122    57.1013    44.5592    85.2451   111.5712    19.4749    19.4410    47.0188     2.7707     0.0851    -0.0424     0.0157  -999.2500  -999.2500   194.3041
  8177.0000   105.6600     8.3402    57.0933    61.3076    87.0749   101.9123    19.4956    19.4387    54.5522     2.7684     0.0750    -0.0297     0.0141  -999.2500  -999.2500   194.3200
  8178.0000   106.5979     8.3951    57.0852    60.4985    79.7936   195.7284    19.5081    19.4270    57.8535     2.7442     0.0681    -0.0185     0.0139  -999.2500  -999.2500   194.3358
  8179.0000   107.0672     8.5344    56.9966    61.9209    75.8127   143.6571    19.5108    19.4086    58.0416     2.7341     0.0587    -0.0030     0.0253  -999.2500  -999.2500   194.3516
  8180.0000   107.5918     8.4872    56.7962    60.1146    60.3993   129.6399    19.5246    19.3981    58.6163     2.7105     0.0536     0.0015     0.0297  -999.2500  -999.2500   194.3674
